{"type":"FeatureCollection","features":[{"type":"Feature","geometry":{"type":"Point","coordinates":[-59.0675,-34.869722]},"properties":{"id":263,"numero":"4/384-C","nombre":"San Sebastian","fecha":"1900-01-01"}},{"type":"Feature","geometry":{"type":"Point","coordinates":[-61.85,-34.1725]},"properties":{"id":1,"numero":null,"nombre":"Aaron Castellanos","fecha":"1900-01-01"}},{"type":"Feature","geometry":{"type":"Point","coordinates":[-61.405556,-33.625]},"properties":{"id":264,"numero":"Rp.11/1340-C","nombre":"San Urbano","fecha":"1900-01-01"}},{"type":"Feature","geometry":{"type":"Point","coordinates":[-58.597222,-35.238889]},"properties":{"id":265,"numero":"9/1646-C","nombre":"San Vicente","fecha":"1900-01-01"}},{"type":"Feature","geometry":{"type":"Point","coordinates":[-62.086667,-34.045833]},"properties":{"id":266,"numero":"798-C","nombre":"Sancti Spiritu","fecha":"1900-01-01"}},{"type":"Feature","geometry":{"type":"Point","coordinates":[-61.188889,-34.351667]},"properties":{"id":267,"numero":"12-993-C","nombre":"Santa Ana","fecha":"1900-01-01"}},{"type":"Feature","geometry":{"type":"Point","coordinates":[-61.605556,-33.963056]},"properties":{"id":268,"numero":"6-602-C","nombre":"Santa Isabel","fecha":"1900-01-01"}},{"type":"Feature","geometry":{"type":"Point","coordinates":[-60.316667,-37.183333]},"properties":{"id":270,"numero":"7-2199-C","nombre":"Santa Luisa","fecha":"1900-01-01"}},{"type":"Feature","geometry":{"type":"Point","coordinates":[-60.420556,-36.1625]},"properties":{"id":271,"numero":"19/5-C","nombre":"Santa Paula","fecha":"1900-01-01"}},{"type":"Feature","geometry":{"type":"Point","coordinates":[-63.195556,-34.481944]},"properties":{"id":272,"numero":"26-C","nombre":"Santa Regina","fecha":"1900-01-01"}},{"type":"Feature","geometry":{"type":"Point","coordinates":[-60.113889,-35.824167]},"properties":{"id":273,"numero":"3/1441-C","nombre":"Santa Rita","fecha":"1900-01-01"}},{"type":"Feature","geometry":{"type":"Point","coordinates":[-56.828611,-36.540278]},"properties":{"id":274,"numero":"16-394-C","nombre":"Santa Teresita","fecha":"1900-01-01"}},{"type":"Feature","geometry":{"type":"Point","coordinates":[-57.184444,-36.958611]},"properties":{"id":275,"numero":"12/3360-C","nombre":"Estacion Santo Domingo","fecha":"1900-01-01"}},{"type":"Feature","geometry":{"type":"Point","coordinates":[-60.435278,-34.908333]},"properties":{"id":276,"numero":"8/1054-C","nombre":"Segui","fecha":"1900-01-01"}},{"type":"Feature","geometry":{"type":"Point","coordinates":[-59.487778,-38.354444]},"properties":{"id":277,"numero":"25/1268-C","nombre":"Semillero Buck","fecha":"1900-01-01"}},{"type":"Feature","geometry":{"type":"Point","coordinates":[-57.929167,-37.945833]},"properties":{"id":278,"numero":"5-1006-C","nombre":"Sierra De Los Padres","fecha":"1900-01-01"}},{"type":"Feature","geometry":{"type":"Point","coordinates":[-59.121111,-34.246389]},"properties":{"id":279,"numero":"Rp. 8/147-C","nombre":"Solis","fecha":"1900-01-01"}},{"type":"Feature","geometry":{"type":"Point","coordinates":[-58.597778,-38.320556]},"properties":{"id":281,"numero":"23/273-C","nombre":"Tamangueyu","fecha":"1900-01-01"}},{"type":"Feature","geometry":{"type":"Point","coordinates":[-60.554167,-33.951389]},"properties":{"id":282,"numero":"6/1035-C","nombre":"Tambo Nuevo","fecha":"1900-01-01"}},{"type":"Feature","geometry":{"type":"Point","coordinates":[-59.4725,-37.283333]},"properties":{"id":283,"numero":"12/2427-C","nombre":"Tandil","fecha":"1900-01-01"}},{"type":"Feature","geometry":{"type":"Point","coordinates":[-58.877778,-37.154167]},"properties":{"id":284,"numero":"12/2963-C","nombre":"Tandileufu","fecha":"1900-01-01"}},{"type":"Feature","geometry":{"type":"Point","coordinates":[-59.616667,-34.452778]},"properties":{"id":285,"numero":"Rp.12/301-C","nombre":"Tatay","fecha":"1900-01-01"}},{"type":"Feature","geometry":{"type":"Point","coordinates":[-60.566667,-37.383333]},"properties":{"id":286,"numero":"60-C","nombre":"Tecua","fecha":"1900-01-01"}},{"type":"Feature","geometry":{"type":"Point","coordinates":[-61.247222,-34.222222]},"properties":{"id":287,"numero":"Rp. 8/750-C","nombre":"Teodelina","fecha":"1900-01-01"}},{"type":"Feature","geometry":{"type":"Point","coordinates":[-59.377778,-34.786111]},"properties":{"id":288,"numero":"2/478-C","nombre":"Tomas Jofre","fecha":"1900-01-01"}},{"type":"Feature","geometry":{"type":"Point","coordinates":[-60.464722,-38.344444]},"properties":{"id":289,"numero":"25/1953-C","nombre":"Tres Arroyos","fecha":"1900-01-01"}},{"type":"Feature","geometry":{"type":"Point","coordinates":[-59.971389,-37.193611]},"properties":{"id":290,"numero":"2/1544-C","nombre":"Tres Esquinas","fecha":"1900-01-01"}},{"type":"Feature","geometry":{"type":"Point","coordinates":[-63.387222,-37.243333]},"properties":{"id":291,"numero":"93-C","nombre":"Tres Lomas","fecha":"1900-01-01"}},{"type":"Feature","geometry":{"type":"Point","coordinates":[-58.8925,-35.8275]},"properties":{"id":292,"numero":"3/1993-C","nombre":"Tronconi","fecha":"1900-01-01"}},{"type":"Feature","geometry":{"type":"Point","coordinates":[-59.170278,-36.308611]},"properties":{"id":293,"numero":"14/2641-C","nombre":"Tuyuti","fecha":"1900-01-01"}},{"type":"Feature","geometry":{"type":"Point","coordinates":[-58.983333,-35.25]},"properties":{"id":294,"numero":"14/1828-C","nombre":"Udaondo","fecha":"1900-01-01"}},{"type":"Feature","geometry":{"type":"Point","coordinates":[-63.708056,-36.511389]},"properties":{"id":295,"numero":null,"nombre":"Uriburu","fecha":"1900-01-01"}},{"type":"Feature","geometry":{"type":"Point","coordinates":[-60.336111,-33.898611]},"properties":{"id":296,"numero":"5/219-C","nombre":"Urquiza","fecha":"1900-01-01"}},{"type":"Feature","geometry":{"type":"Point","coordinates":[-57.291389,-37.603333]},"properties":{"id":297,"numero":"8/1690-C","nombre":"Valeria Del Mar","fecha":"1900-01-01"}},{"type":"Feature","geometry":{"type":"Point","coordinates":[-61.411944,-34.9175]},"properties":{"id":298,"numero":"2703-C","nombre":"Vedia","fecha":"1900-01-01"}},{"type":"Feature","geometry":{"type":"Point","coordinates":[-60.535,-37.535278]},"properties":{"id":299,"numero":"23/185-C","nombre":"Veinticinco De Mayo","fecha":"1900-01-01"}},{"type":"Feature","geometry":{"type":"Point","coordinates":[-61.866667,-33.738889]},"properties":{"id":300,"numero":"6/749-C","nombre":"Venado Tuerto","fecha":"1900-01-01"}},{"type":"Feature","geometry":{"type":"Point","coordinates":[-57.346389,-35.301667]},"properties":{"id":301,"numero":"3/1268-C","nombre":"Veronica","fecha":"1900-01-01"}},{"type":"Feature","geometry":{"type":"Point","coordinates":[-58.736111,-36.271111]},"properties":{"id":302,"numero":"1/2614-C","nombre":"Vichahuel","fecha":"1900-01-01"}},{"type":"Feature","geometry":{"type":"Point","coordinates":[-58.521944,-35.603611]},"properties":{"id":303,"numero":"13/2302-C","nombre":"Videla Dorna","fecha":"1900-01-01"}},{"type":"Feature","geometry":{"type":"Point","coordinates":[-57.351389,-35.300556]},"properties":{"id":304,"numero":"3/1267-C","nombre":"Vieytes","fecha":"1900-01-01"}},{"type":"Feature","geometry":{"type":"Point","coordinates":[-59.257222,-38.425556]},"properties":{"id":305,"numero":"25/1269-C","nombre":"Villa","fecha":"1900-01-01"}},{"type":"Feature","geometry":{"type":"Point","coordinates":[-61.665833,-33.969167]},"properties":{"id":306,"numero":"Rp. 11-828-C","nombre":"Villa Canas","fecha":"1900-01-01"}},{"type":"Feature","geometry":{"type":"Point","coordinates":[-57.264167,-37.615556]},"properties":{"id":307,"numero":"8/1692-C","nombre":"Villa Gesell","fecha":"1900-01-01"}},{"type":"Feature","geometry":{"type":"Point","coordinates":[-59.724444,-35.140833]},"properties":{"id":308,"numero":"14/436-C","nombre":"Villa Moll","fecha":"1900-01-01"}},{"type":"Feature","geometry":{"type":"Point","coordinates":[-57.036944,-36.418611]},"properties":{"id":309,"numero":"16/383-C","nombre":"Villa Roch","fecha":"1900-01-01"}},{"type":"Feature","geometry":{"type":"Point","coordinates":[-63.266667,-34.3]},"properties":{"id":310,"numero":null,"nombre":"Villa Rossi","fecha":"1900-01-01"}},{"type":"Feature","geometry":{"type":"Point","coordinates":[-61.2625,-33.683333]},"properties":{"id":312,"numero":"11-1147-C","nombre":"Wheelwright","fecha":"1900-01-01"}},{"type":"Feature","geometry":{"type":"Point","coordinates":[-59.777222,-34.830833]},"properties":{"id":313,"numero":"14/360-C","nombre":"Zapiola","fecha":"1900-01-01"}},{"type":"Feature","geometry":{"type":"Point","coordinates":[-60.828333,-32.954167]},"properties":{"id":314,"numero":"4/705-C","nombre":"Zavalla","fecha":"1900-01-01"}},{"type":"Feature","geometry":{"type":"Point","coordinates":[-60.850000002384746,-33.2694439882344]},"properties":{"id":269,"numero":"Rp. 1/806-C","nombre":"Santa Lucía","fecha":"1900-01-01"}},{"type":"Feature","geometry":{"type":"Point","coordinates":[-60.452778,-36.844444]},"properties":{"id":25,"numero":"7/1743-C","nombre":"Blanca Chica","fecha":"1900-01-01"}},{"type":"Feature","geometry":{"type":"Point","coordinates":[-62.405556,-34.855556]},"properties":{"id":6,"numero":"37-C","nombre":"Ameghino","fecha":"1900-01-01"}},{"type":"Feature","geometry":{"type":"Point","coordinates":[-62.2,-34.106667]},"properties":{"id":7,"numero":"789-C","nombre":"Amenabar","fecha":"1900-01-01"}},{"type":"Feature","geometry":{"type":"Point","coordinates":[-60.266667,-38.25]},"properties":{"id":8,"numero":"25/1294-C","nombre":"Apead. Las Vaquerias","fecha":"1900-01-01"}},{"type":"Feature","geometry":{"type":"Point","coordinates":[-62.875,-37.636667]},"properties":{"id":9,"numero":"23-1323-C","nombre":"Alta Vista","fecha":"1900-01-01"}},{"type":"Feature","geometry":{"type":"Point","coordinates":[-57.107222,-37.331389]},"properties":{"id":11,"numero":"8/2424-C","nombre":"Arroyo Chico","fecha":"1900-01-01"}},{"type":"Feature","geometry":{"type":"Point","coordinates":[-62.310278,-37.654167]},"properties":{"id":12,"numero":"23/1363-C","nombre":"Arroyo Corto","fecha":"1900-01-01"}},{"type":"Feature","geometry":{"type":"Point","coordinates":[-59.517222,-38.452222]},"properties":{"id":13,"numero":"23/584-C","nombre":"Arroyo De Zabala","fecha":"1900-01-01"}},{"type":"Feature","geometry":{"type":"Point","coordinates":[-58.2625,-37.808333]},"properties":{"id":16,"numero":"4/957-C","nombre":"Arroyo Pantanoso","fecha":"1900-01-01"}},{"type":"Feature","geometry":{"type":"Point","coordinates":[-57.535,-35.048333]},"properties":{"id":17,"numero":"9/2319-C","nombre":"Atalaya","fecha":"1900-01-01"}},{"type":"Feature","geometry":{"type":"Point","coordinates":[-59.424444,-33.833333]},"properties":{"id":18,"numero":"R.P.6/207-C","nombre":"Atucha","fecha":"1900-01-01"}},{"type":"Feature","geometry":{"type":"Point","coordinates":[-59.333333,-34.219722]},"properties":{"id":19,"numero":"RP5/574-C","nombre":"Azcuenaga","fecha":"1900-01-01"}},{"type":"Feature","geometry":{"type":"Point","coordinates":[-59.834722,-37.218056]},"properties":{"id":20,"numero":"2/1532-C","nombre":"Azul","fecha":"1900-01-01"}},{"type":"Feature","geometry":{"type":"Point","coordinates":[-57.115,-36.276389]},"properties":{"id":21,"numero":"16/173-C","nombre":"Bahia de Samborombon","fecha":"1900-01-01"}},{"type":"Feature","geometry":{"type":"Point","coordinates":[-62.807778,-34.457222]},"properties":{"id":22,"numero":"15-C","nombre":"Balbin","fecha":"1900-01-01"}},{"type":"Feature","geometry":{"type":"Point","coordinates":[-58.022222,-37.821667]},"properties":{"id":23,"numero":"4/963-C","nombre":"Balcarce","fecha":"1900-01-01"}},{"type":"Feature","geometry":{"type":"Point","coordinates":[-59.266667,-37.466667]},"properties":{"id":24,"numero":"10/2298-C","nombre":"Barker","fecha":"1900-01-01"}},{"type":"Feature","geometry":{"type":"Point","coordinates":[-60.453333,-35.695833]},"properties":{"id":26,"numero":"3/1437-C","nombre":"Bolivar","fecha":"1900-01-01"}},{"type":"Feature","geometry":{"type":"Point","coordinates":[-60.3775,-35.098889]},"properties":{"id":27,"numero":"16/736-C","nombre":"Bragado","fecha":"1900-01-01"}},{"type":"Feature","geometry":{"type":"Point","coordinates":[-58.447222,-35.422222]},"properties":{"id":28,"numero":"9/1431-C","nombre":"Brandsen","fecha":"1900-01-01"}},{"type":"Feature","geometry":{"type":"Point","coordinates":[-59.375,-36.390278]},"properties":{"id":29,"numero":"13/1907-C","nombre":"Cachari","fecha":"1900-01-01"}},{"type":"Feature","geometry":{"type":"Point","coordinates":[-59.147222,-34.091667]},"properties":{"id":30,"numero":"8/146-C","nombre":"Canada Honda","fecha":"1900-01-01"}},{"type":"Feature","geometry":{"type":"Point","coordinates":[-62.57,-34.738889]},"properties":{"id":31,"numero":"14/C","nombre":"Canada Seca","fecha":"1900-01-01"}},{"type":"Feature","geometry":{"type":"Point","coordinates":[-57.334722,-37.6175]},"properties":{"id":32,"numero":"8/1693-C","nombre":"Canal Siete","fecha":"1900-01-01"}},{"type":"Feature","geometry":{"type":"Point","coordinates":[-59.130278,-34.286667]},"properties":{"id":33,"numero":"8/149-C","nombre":"Capilla Del Senor","fecha":"1900-01-01"}},{"type":"Feature","geometry":{"type":"Point","coordinates":[-59.611111,-34.222222]},"properties":{"id":34,"numero":"RP.10/148-C","nombre":"Capitan Sarmiento","fecha":"1900-01-01"}},{"type":"Feature","geometry":{"type":"Point","coordinates":[-60.836111,-34.013889]},"properties":{"id":35,"numero":"07/79-C","nombre":"Carabelas","fecha":"1900-01-01"}},{"type":"Feature","geometry":{"type":"Point","coordinates":[-62.981667,-37.188333]},"properties":{"id":36,"numero":"23-1297-C","nombre":"Carhue","fecha":"1900-01-01"}},{"type":"Feature","geometry":{"type":"Point","coordinates":[-62.954722,-35.418889]},"properties":{"id":37,"numero":"23/1253-C","nombre":"Carlos Salas","fecha":"1900-01-01"}},{"type":"Feature","geometry":{"type":"Point","coordinates":[-61.930833,-35.788333]},"properties":{"id":38,"numero":"23/1245-C","nombre":"Carlos Tejedor","fecha":"1900-01-01"}},{"type":"Feature","geometry":{"type":"Point","coordinates":[-62.411667,-37.186667]},"properties":{"id":39,"numero":"23-1353-C","nombre":"Cascada","fecha":"1900-01-01"}},{"type":"Feature","geometry":{"type":"Point","coordinates":[-57.955556,-36.143056]},"properties":{"id":40,"numero":"26/50-C","nombre":"Castelli","fecha":"1900-01-01"}},{"type":"Feature","geometry":{"type":"Point","coordinates":[-60.272778,-34.535278]},"properties":{"id":41,"numero":"RP10/437-C","nombre":"Chacabuco","fecha":"1900-01-01"}},{"type":"Feature","geometry":{"type":"Point","coordinates":[-57.916667,-35.633333]},"properties":{"id":42,"numero":"1/1998-C","nombre":"Chascomus","fecha":"1900-01-01"}},{"type":"Feature","geometry":{"type":"Point","coordinates":[-58.3,-36.983333]},"properties":{"id":43,"numero":"21/196-C","nombre":"Chelforo","fecha":"1900-01-01"}},{"type":"Feature","geometry":{"type":"Point","coordinates":[-62.204444,-34.155278]},"properties":{"id":44,"numero":"790-C","nombre":"Christophersen","fecha":"1900-01-01"}},{"type":"Feature","geometry":{"type":"Point","coordinates":[-58.165,-38.345]},"properties":{"id":45,"numero":"8/451-C","nombre":"Chocori","fecha":"1900-01-01"}},{"type":"Feature","geometry":{"type":"Point","coordinates":[-61.552778,-33.825]},"properties":{"id":46,"numero":null,"nombre":"Chovet","fecha":"1900-01-01"}},{"type":"Feature","geometry":{"type":"Point","coordinates":[-58.518333,-38.007222]},"properties":{"id":47,"numero":"23/286-C","nombre":"Cinco Cerros","fecha":"1900-01-01"}},{"type":"Feature","geometry":{"type":"Point","coordinates":[-60.116667,-38.4125]},"properties":{"id":48,"numero":"25/1934-C","nombre":"Claudio Molina","fecha":"1900-01-01"}},{"type":"Feature","geometry":{"type":"Point","coordinates":[-57.919167,-38.143333]},"properties":{"id":49,"numero":"5/251-C","nombre":"Cmte.N.Otamendi","fecha":"1900-01-01"}},{"type":"Feature","geometry":{"type":"Point","coordinates":[-57.196389,-37.364444]},"properties":{"id":50,"numero":"8/1872-C","nombre":"Cobo","fecha":"1900-01-01"}},{"type":"Feature","geometry":{"type":"Point","coordinates":[-60.338889,-38.803889]},"properties":{"id":51,"numero":"25/1944-C","nombre":"Copetonas","fecha":"1900-01-01"}},{"type":"Feature","geometry":{"type":"Point","coordinates":[-60.7,-37.466667]},"properties":{"id":52,"numero":"52-C","nombre":"Coronel Bunge","fecha":"1900-01-01"}},{"type":"Feature","geometry":{"type":"Point","coordinates":[-57.272778,-37.2075]},"properties":{"id":53,"numero":"8/2422-C","nombre":"Coronel Vidal","fecha":"1900-01-01"}},{"type":"Feature","geometry":{"type":"Point","coordinates":[-62.466667,-34.5375]},"properties":{"id":54,"numero":"11-C","nombre":"Corrales","fecha":"1900-01-01"}},{"type":"Feature","geometry":{"type":"Point","coordinates":[-59.524722,-38.478611]},"properties":{"id":55,"numero":"23/582-C","nombre":"Cristiano Muerto","fecha":"1900-01-01"}},{"type":"Feature","geometry":{"type":"Point","coordinates":[-60.866667,-37.533333]},"properties":{"id":56,"numero":"8-C","nombre":"Cruzada","fecha":"1900-01-01"}},{"type":"Feature","geometry":{"type":"Point","coordinates":[-62.168889,-37.786389]},"properties":{"id":57,"numero":"23/1347-C","nombre":"Cura Malal","fecha":"1900-01-01"}},{"type":"Feature","geometry":{"type":"Point","coordinates":[-57.4475,-36.239444]},"properties":{"id":59,"numero":"16/179-C","nombre":"Dolores","fecha":"1900-01-01"}},{"type":"Feature","geometry":{"type":"Point","coordinates":[-62.57,-34.738889]},"properties":{"id":60,"numero":"48-C","nombre":"Drabble","fecha":"1900-01-01"}},{"type":"Feature","geometry":{"type":"Point","coordinates":[-62.378333,-37.966389]},"properties":{"id":61,"numero":"23/1346-C","nombre":"Dufaur","fecha":"1900-01-01"}},{"type":"Feature","geometry":{"type":"Point","coordinates":[-61.141667,-37.171111]},"properties":{"id":62,"numero":"23/807-C","nombre":"Ea.Aldecoa","fecha":"1900-01-01"}},{"type":"Feature","geometry":{"type":"Point","coordinates":[-63.28,-35.629167]},"properties":{"id":63,"numero":"C-60","nombre":"Ea.La Angelita","fecha":"1900-01-01"}},{"type":"Feature","geometry":{"type":"Point","coordinates":[-63.544444,-36.290278]},"properties":{"id":64,"numero":"C-76","nombre":"Ea.La Chana","fecha":"1900-01-01"}},{"type":"Feature","geometry":{"type":"Point","coordinates":[-63.132222,-35.648889]},"properties":{"id":65,"numero":"C-63","nombre":"Ea.La Criolla","fecha":"1900-01-01"}},{"type":"Feature","geometry":{"type":"Point","coordinates":[-59.351667,-38.502222]},"properties":{"id":66,"numero":"25/1270-C","nombre":"Ea. La Margarita","fecha":"1900-01-01"}},{"type":"Feature","geometry":{"type":"Point","coordinates":[-57.418611,-36.418889]},"properties":{"id":67,"numero":"16/386-C","nombre":"Ea. La Victoria","fecha":"1900-01-01"}},{"type":"Feature","geometry":{"type":"Point","coordinates":[-59.975,-36.707778]},"properties":{"id":68,"numero":"23/598-C","nombre":"Ea.La Salada","fecha":"1900-01-01"}},{"type":"Feature","geometry":{"type":"Point","coordinates":[-62.603333,-37.531667]},"properties":{"id":69,"numero":"23/1336-C","nombre":"Ea.Los Manantiales","fecha":"1900-01-01"}},{"type":"Feature","geometry":{"type":"Point","coordinates":[-63.260556,-37.248889]},"properties":{"id":70,"numero":"90-C","nombre":"Ea.Melamed","fecha":"1900-01-01"}},{"type":"Feature","geometry":{"type":"Point","coordinates":[-62.543611,-37.638889]},"properties":{"id":71,"numero":"23/1341-C","nombre":"Ea.Ojo De Agua","fecha":"1900-01-01"}},{"type":"Feature","geometry":{"type":"Point","coordinates":[-63.3425,-34.470278]},"properties":{"id":72,"numero":"28-C","nombre":"Ea.Renana","fecha":"1900-01-01"}},{"type":"Feature","geometry":{"type":"Point","coordinates":[-63.149444,-36.073611]},"properties":{"id":73,"numero":"C-72","nombre":"Ea.San Baldomero","fecha":"1900-01-01"}},{"type":"Feature","geometry":{"type":"Point","coordinates":[-63.349167,-36.563333]},"properties":{"id":74,"numero":"C-79","nombre":"Ea.San Bernardo","fecha":"1900-01-01"}},{"type":"Feature","geometry":{"type":"Point","coordinates":[-62.122222,-34.2225]},"properties":{"id":75,"numero":"2-C","nombre":"Ea.Santa Ana","fecha":"1900-01-01"}},{"type":"Feature","geometry":{"type":"Point","coordinates":[-57.340833,-35.5325]},"properties":{"id":76,"numero":"8/1699-C","nombre":"Ea. Tarruhe","fecha":"1900-01-01"}},{"type":"Feature","geometry":{"type":"Point","coordinates":[-59.277778,-36.788889]},"properties":{"id":77,"numero":"13/2704-C","nombre":"Egana","fecha":"1900-01-01"}},{"type":"Feature","geometry":{"type":"Point","coordinates":[-62.198333,-34.241667]},"properties":{"id":78,"numero":"3-C","nombre":"El Abolengo","fecha":"1900-01-01"}},{"type":"Feature","geometry":{"type":"Point","coordinates":[-61.126389,-33.722222]},"properties":{"id":79,"numero":"11/1040-C","nombre":"El Arbolito","fecha":"1900-01-01"}},{"type":"Feature","geometry":{"type":"Point","coordinates":[-57.929167,-36.122222]},"properties":{"id":80,"numero":"21/3238-C","nombre":"El Carmen","fecha":"1900-01-01"}},{"type":"Feature","geometry":{"type":"Point","coordinates":[-59.783611,-38.794167]},"properties":{"id":81,"numero":"23/594-C","nombre":"El Carrizal","fecha":"1900-01-01"}},{"type":"Feature","geometry":{"type":"Point","coordinates":[-57.280556,-35.574444]},"properties":{"id":82,"numero":"14/2169-C","nombre":"El Cortijo","fecha":"1900-01-01"}},{"type":"Feature","geometry":{"type":"Point","coordinates":[-57.508333,-35.055556]},"properties":{"id":83,"numero":"9/2315-C","nombre":"El Destino","fecha":"1900-01-01"}},{"type":"Feature","geometry":{"type":"Point","coordinates":[-61.216667,-38.414444]},"properties":{"id":84,"numero":"25/9-C","nombre":"El Gavilan","fecha":"1900-01-01"}},{"type":"Feature","geometry":{"type":"Point","coordinates":[-61.516667,-33.755556]},"properties":{"id":85,"numero":"6/791-C","nombre":"El Pedernal","fecha":"1900-01-01"}},{"type":"Feature","geometry":{"type":"Point","coordinates":[-61.154167,-33.752778]},"properties":{"id":86,"numero":"RP11/1039-C","nombre":"El Recuerdo","fecha":"1900-01-01"}},{"type":"Feature","geometry":{"type":"Point","coordinates":[-57.285556,-36.468611]},"properties":{"id":87,"numero":"16/385-C","nombre":"El Tordillo","fecha":"1900-01-01"}},{"type":"Feature","geometry":{"type":"Point","coordinates":[-58.725,-36.09]},"properties":{"id":88,"numero":"1/2605-C","nombre":"El Toro","fecha":"1900-01-01"}},{"type":"Feature","geometry":{"type":"Point","coordinates":[-60.45833300977716,-33.634721984293954]},"properties":{"id":15,"numero":"7/450-C","nombre":"Arroyo Juárez","fecha":"1900-01-01"}},{"type":"Feature","geometry":{"type":"Point","coordinates":[-56.72,-36.561667]},"properties":{"id":89,"numero":"16/396-C","nombre":"El Tuyu","fecha":"1900-01-01"}},{"type":"Feature","geometry":{"type":"Point","coordinates":[-60.675,-38.45]},"properties":{"id":90,"numero":"28/438-C","nombre":"El Vigilante","fecha":"1900-01-01"}},{"type":"Feature","geometry":{"type":"Point","coordinates":[-60.716667,-37.366667]},"properties":{"id":91,"numero":"71-C","nombre":"Elena","fecha":"1900-01-01"}},{"type":"Feature","geometry":{"type":"Point","coordinates":[-63.188889,-35.076389]},"properties":{"id":92,"numero":"46-C","nombre":"Elordi","fecha":"1900-01-01"}},{"type":"Feature","geometry":{"type":"Point","coordinates":[-62.71,-37.09]},"properties":{"id":93,"numero":"23-1295-C","nombre":"Epecuen","fecha":"1900-01-01"}},{"type":"Feature","geometry":{"type":"Point","coordinates":[-62.861667,-37.526667]},"properties":{"id":94,"numero":"23-1326-C","nombre":"Erize","fecha":"1900-01-01"}},{"type":"Feature","geometry":{"type":"Point","coordinates":[-57.413333,-36.223333]},"properties":{"id":95,"numero":"16/178-C","nombre":"Esquina de Crotto","fecha":"1900-01-01"}},{"type":"Feature","geometry":{"type":"Point","coordinates":[-60.896389,-35.622778]},"properties":{"id":96,"numero":"23/516-C","nombre":"Estacion 12 Octubre","fecha":"1900-01-01"}},{"type":"Feature","geometry":{"type":"Point","coordinates":[-58.555556,-35.93]},"properties":{"id":97,"numero":"3/2209-C","nombre":"Estacion Chas","fecha":"1900-01-01"}},{"type":"Feature","geometry":{"type":"Point","coordinates":[-60.7425,-35.435833]},"properties":{"id":98,"numero":"23/518-C","nombre":"Estacion Dehenny","fecha":"1900-01-01"}},{"type":"Feature","geometry":{"type":"Point","coordinates":[-57.240833,-37.065]},"properties":{"id":99,"numero":"8/2411-C","nombre":"Estacion Invernadas","fecha":"1900-01-01"}},{"type":"Feature","geometry":{"type":"Point","coordinates":[-60.616111,-35.106944]},"properties":{"id":100,"numero":"23/195-C","nombre":"Estacion La Limpia","fecha":"1900-01-01"}},{"type":"Feature","geometry":{"type":"Point","coordinates":[-61.967778,-36.847222]},"properties":{"id":101,"numero":"23-1306-C","nombre":"Estacion La Nevada","fecha":"1900-01-01"}},{"type":"Feature","geometry":{"type":"Point","coordinates":[-60.814444,-35.380833]},"properties":{"id":102,"numero":"23/521-C","nombre":"Estacion Morea","fecha":"1900-01-01"}},{"type":"Feature","geometry":{"type":"Point","coordinates":[-61.207778,-35.061111]},"properties":{"id":103,"numero":"23/351-C","nombre":"Estacion Naon","fecha":"1900-01-01"}},{"type":"Feature","geometry":{"type":"Point","coordinates":[-61.235278,-37.154444]},"properties":{"id":104,"numero":"23/805-C","nombre":"Estacion Quilco","fecha":"1900-01-01"}},{"type":"Feature","geometry":{"type":"Point","coordinates":[-63.240278,-37.236389]},"properties":{"id":105,"numero":"89-C","nombre":"Estacion Rivera","fecha":"1900-01-01"}},{"type":"Feature","geometry":{"type":"Point","coordinates":[-59.733889,-36.270556]},"properties":{"id":106,"numero":"9/3051-C","nombre":"Estacion Yerbas","fecha":"1900-01-01"}},{"type":"Feature","geometry":{"type":"Point","coordinates":[-63.383333,-35.567222]},"properties":{"id":107,"numero":"01-C","nombre":"Est.Gonzalez Moreno","fecha":"1900-01-01"}},{"type":"Feature","geometry":{"type":"Point","coordinates":[-58.061667,-35.034167]},"properties":{"id":108,"numero":"1/1050-","nombre":"Etcheverry","fecha":"1900-01-01"}},{"type":"Feature","geometry":{"type":"Point","coordinates":[-57.214167,-37.440833]},"properties":{"id":109,"numero":"8/1771-C","nombre":"Faro Querandi","fecha":"1900-01-01"}},{"type":"Feature","geometry":{"type":"Point","coordinates":[-60.913889,-33.768056]},"properties":{"id":110,"numero":"9/744-C","nombre":"Faustina","fecha":"1900-01-01"}},{"type":"Feature","geometry":{"type":"Point","coordinates":[-60.938889,-34.378611]},"properties":{"id":111,"numero":"12/788-C","nombre":"Fortin Tiburcio","fecha":"1900-01-01"}},{"type":"Feature","geometry":{"type":"Point","coordinates":[-60.816667,-33.558333]},"properties":{"id":112,"numero":"10/936-C","nombre":"Gelly","fecha":"1900-01-01"}},{"type":"Feature","geometry":{"type":"Point","coordinates":[-60.241667,-38.029167]},"properties":{"id":113,"numero":"25/1289-C","nombre":"Gonzalez Chaves","fecha":"1900-01-01"}},{"type":"Feature","geometry":{"type":"Point","coordinates":[-59.920833,-35.071111]},"properties":{"id":114,"numero":"4/714-C","nombre":"Gorostiaga","fecha":"1900-01-01"}},{"type":"Feature","geometry":{"type":"Point","coordinates":[-59.913889,-34.451389]},"properties":{"id":115,"numero":"12-772-C","nombre":"Gowland","fecha":"1900-01-01"}},{"type":"Feature","geometry":{"type":"Point","coordinates":[-58.633056,-36.953889]},"properties":{"id":116,"numero":"3-2210-C","nombre":"Goyeneche","fecha":"1900-01-01"}},{"type":"Feature","geometry":{"type":"Point","coordinates":[-57.183889,-36.953889]},"properties":{"id":117,"numero":"16-389-C","nombre":"Gral. Conesa","fecha":"1900-01-01"}},{"type":"Feature","geometry":{"type":"Point","coordinates":[-58.133333,-36.983333]},"properties":{"id":118,"numero":"21-202-C","nombre":"Gral.Guido","fecha":"1900-01-01"}},{"type":"Feature","geometry":{"type":"Point","coordinates":[-57.223333,-36.637778]},"properties":{"id":119,"numero":"16-390-C","nombre":"Gral.Lavalle","fecha":"1900-01-01"}},{"type":"Feature","geometry":{"type":"Point","coordinates":[-57.035833,-36.455278]},"properties":{"id":120,"numero":"16-392-C","nombre":"Gral.Madariaga","fecha":"1900-01-01"}},{"type":"Feature","geometry":{"type":"Point","coordinates":[-57.601667,-36.6125]},"properties":{"id":121,"numero":"6-3148 -C","nombre":"Gral.Piran","fecha":"1900-01-01"}},{"type":"Feature","geometry":{"type":"Point","coordinates":[-62.373333,-37.051667]},"properties":{"id":122,"numero":"23-1354-C","nombre":"Guamini","fecha":"1900-01-01"}},{"type":"Feature","geometry":{"type":"Point","coordinates":[-60.65,-37.466667]},"properties":{"id":123,"numero":"64-C","nombre":"Guillermo","fecha":"1900-01-01"}},{"type":"Feature","geometry":{"type":"Point","coordinates":[-61.676667,-36.364722]},"properties":{"id":124,"numero":"23/1272-C","nombre":"Henderson","fecha":"1900-01-01"}},{"type":"Feature","geometry":{"type":"Point","coordinates":[-59.900833,-34.869722]},"properties":{"id":125,"numero":"4/382-C","nombre":"Henry Bell","fecha":"1900-01-01"}},{"type":"Feature","geometry":{"type":"Point","coordinates":[-60.919444,-33.773611]},"properties":{"id":126,"numero":"9/748-C","nombre":"Huemul","fecha":"1900-01-01"}},{"type":"Feature","geometry":{"type":"Point","coordinates":[-61.375,-33.761111]},"properties":{"id":127,"numero":"6/1075-C","nombre":"Hughes","fecha":"1900-01-01"}},{"type":"Feature","geometry":{"type":"Point","coordinates":[-57.669167,-35.191111]},"properties":{"id":128,"numero":"3/1108-C","nombre":"Ignacio Correas","fecha":"1900-01-01"}},{"type":"Feature","geometry":{"type":"Point","coordinates":[-60.239167,-34.819722]},"properties":{"id":129,"numero":"4/571-C","nombre":"Indacochea","fecha":"1900-01-01"}},{"type":"Feature","geometry":{"type":"Point","coordinates":[-60.271667,-34.628333]},"properties":{"id":130,"numero":"13/545-C","nombre":"Ingeniero Silveyra","fecha":"1900-01-01"}},{"type":"Feature","geometry":{"type":"Point","coordinates":[-57.295,-37.257778]},"properties":{"id":131,"numero":"8/2423-C","nombre":"Juancho","fecha":"1900-01-01"}},{"type":"Feature","geometry":{"type":"Point","coordinates":[-61.0375,-33.683333]},"properties":{"id":132,"numero":"9/741-C","nombre":"Juncal","fecha":"1900-01-01"}},{"type":"Feature","geometry":{"type":"Point","coordinates":[-58.186389,-36.985278]},"properties":{"id":133,"numero":"21/199-C","nombre":"Juncalito","fecha":"1900-01-01"}},{"type":"Feature","geometry":{"type":"Point","coordinates":[-61.833333,-34.529167]},"properties":{"id":134,"numero":"12/997-C","nombre":"Junin","fecha":"1900-01-01"}},{"type":"Feature","geometry":{"type":"Point","coordinates":[-60.421944,-35.767778]},"properties":{"id":135,"numero":"3/1705-C","nombre":"La Albina","fecha":"1900-01-01"}},{"type":"Feature","geometry":{"type":"Point","coordinates":[-58.483333,-37.736111]},"properties":{"id":136,"numero":"8/1351-C","nombre":"La Alianza","fecha":"1900-01-01"}},{"type":"Feature","geometry":{"type":"Point","coordinates":[-62.95,-33.866667]},"properties":{"id":137,"numero":null,"nombre":"La Cesira","fecha":"1900-01-01"}},{"type":"Feature","geometry":{"type":"Point","coordinates":[-61.480556,-37.379167]},"properties":{"id":138,"numero":"65-C","nombre":"La Colina","fecha":"1900-01-01"}},{"type":"Feature","geometry":{"type":"Point","coordinates":[-60.333333,-37.116667]},"properties":{"id":139,"numero":"2272-C","nombre":"La Delicia","fecha":"1900-01-01"}},{"type":"Feature","geometry":{"type":"Point","coordinates":[-60.372222,-36.108611]},"properties":{"id":140,"numero":"19/3-C","nombre":"La Emma","fecha":"1900-01-01"}},{"type":"Feature","geometry":{"type":"Point","coordinates":[-60.219444,-36.694444]},"properties":{"id":141,"numero":"7/1581-C","nombre":"La Escocia","fecha":"1900-01-01"}},{"type":"Feature","geometry":{"type":"Point","coordinates":[-60.083333,-35.659722]},"properties":{"id":142,"numero":"23/183-C","nombre":"La Guanaca","fecha":"1900-01-01"}},{"type":"Feature","geometry":{"type":"Point","coordinates":[-58.824444,-36.057778]},"properties":{"id":143,"numero":"1/2603-C","nombre":"La Guarida Del Zorro","fecha":"1900-01-01"}},{"type":"Feature","geometry":{"type":"Point","coordinates":[-57.508333,-35.632222]},"properties":{"id":144,"numero":"9/2128-C","nombre":"La Laguna","fecha":"1900-01-01"}},{"type":"Feature","geometry":{"type":"Point","coordinates":[-57.869167,-35.545556]},"properties":{"id":145,"numero":"1/1994-C","nombre":"La Libertad","fecha":"1900-01-01"}},{"type":"Feature","geometry":{"type":"Point","coordinates":[-60.816667,-37.583333]},"properties":{"id":146,"numero":"1-C","nombre":"La Loma","fecha":"1900-01-01"}},{"type":"Feature","geometry":{"type":"Point","coordinates":[-58.3675,-38.275]},"properties":{"id":147,"numero":"8/438-C","nombre":"La Malacara","fecha":"1900-01-01"}},{"type":"Feature","geometry":{"type":"Point","coordinates":[-60.383333,-36.117778]},"properties":{"id":148,"numero":"C-4","nombre":"La Maria Luisa","fecha":"1900-01-01"}},{"type":"Feature","geometry":{"type":"Point","coordinates":[-60.5,-37.016667]},"properties":{"id":149,"numero":"7/2287-C","nombre":"La Nueva Esperanza","fecha":"1900-01-01"}},{"type":"Feature","geometry":{"type":"Point","coordinates":[-60.833333,-34.655556]},"properties":{"id":150,"numero":"12/779-C","nombre":"La Oriental","fecha":"1900-01-01"}},{"type":"Feature","geometry":{"type":"Point","coordinates":[-59.390278,-38.607778]},"properties":{"id":151,"numero":"25/1264-C","nombre":"La Otomana","fecha":"1900-01-01"}},{"type":"Feature","geometry":{"type":"Point","coordinates":[-60.241667,-35.973333]},"properties":{"id":152,"numero":"3/1716-C","nombre":"La Paulina","fecha":"1900-01-01"}},{"type":"Feature","geometry":{"type":"Point","coordinates":[-59.174444,-38.435]},"properties":{"id":153,"numero":"25/1271-C","nombre":"La Ponderosa","fecha":"1900-01-01"}},{"type":"Feature","geometry":{"type":"Point","coordinates":[-58.674444,-38.207778]},"properties":{"id":154,"numero":"23/280-C","nombre":"La Reforma","fecha":"1900-01-01"}},{"type":"Feature","geometry":{"type":"Point","coordinates":[-61.116667,-38.45]},"properties":{"id":155,"numero":"25/10-C","nombre":"La Retranca","fecha":"1900-01-01"}},{"type":"Feature","geometry":{"type":"Point","coordinates":[-57.635556,-35.183333]},"properties":{"id":156,"numero":"9/2318-C","nombre":"La Saturna","fecha":"1900-01-01"}},{"type":"Feature","geometry":{"type":"Point","coordinates":[-61.411111,-33.977778]},"properties":{"id":157,"numero":"6/1074-C","nombre":"La Sofia","fecha":"1900-01-01"}},{"type":"Feature","geometry":{"type":"Point","coordinates":[-60.95,-37.366667]},"properties":{"id":158,"numero":"80-C","nombre":"La Tigra","fecha":"1900-01-01"}},{"type":"Feature","geometry":{"type":"Point","coordinates":[-61.466667,-33.908333]},"properties":{"id":159,"numero":"6/1073-C","nombre":"La Zoraida","fecha":"1900-01-01"}},{"type":"Feature","geometry":{"type":"Point","coordinates":[-61.361111,-33.772222]},"properties":{"id":160,"numero":"11/1152-C","nombre":"Labordeboy","fecha":"1900-01-01"}},{"type":"Feature","geometry":{"type":"Point","coordinates":[-63.416667,-34.216667]},"properties":{"id":161,"numero":"FALTA","nombre":"Laboulage","fecha":"1900-01-01"}},{"type":"Feature","geometry":{"type":"Point","coordinates":[-57.243056,-37.545]},"properties":{"id":162,"numero":"8/1696-C","nombre":"Laguna Blanca","fecha":"1900-01-01"}},{"type":"Feature","geometry":{"type":"Point","coordinates":[-62.968333,-37.623333]},"properties":{"id":163,"numero":"23/1328-C","nombre":"Laguna Puan","fecha":"1900-01-01"}},{"type":"Feature","geometry":{"type":"Point","coordinates":[-60.943056,-33.75]},"properties":{"id":165,"numero":"9/743-C","nombre":"Las Gamas","fecha":"1900-01-01"}},{"type":"Feature","geometry":{"type":"Point","coordinates":[-58.938056,-34.644167]},"properties":{"id":166,"numero":"1/543-C","nombre":"Las Heras","fecha":"1900-01-01"}},{"type":"Feature","geometry":{"type":"Point","coordinates":[-60.8,-37.466667]},"properties":{"id":167,"numero":"94-C","nombre":"Las Hermanas","fecha":"1900-01-01"}},{"type":"Feature","geometry":{"type":"Point","coordinates":[-60.866667,-37.533333]},"properties":{"id":168,"numero":"9-C","nombre":"Las Margaritas","fecha":"1900-01-01"}},{"type":"Feature","geometry":{"type":"Point","coordinates":[-63.083333,-34.266667]},"properties":{"id":169,"numero":"?","nombre":"Las Marinas","fecha":"1900-01-01"}},{"type":"Feature","geometry":{"type":"Point","coordinates":[-61.090833,-37.183333]},"properties":{"id":170,"numero":"23/809-C","nombre":"Las Martinetas","fecha":"1900-01-01"}},{"type":"Feature","geometry":{"type":"Point","coordinates":[-61.306944,-34.318056]},"properties":{"id":172,"numero":"8/736-C","nombre":"Las Parvas","fecha":"1900-01-01"}},{"type":"Feature","geometry":{"type":"Point","coordinates":[-62.05,-33.821111]},"properties":{"id":173,"numero":null,"nombre":"Lazzarino","fecha":"1900-01-01"}},{"type":"Feature","geometry":{"type":"Point","coordinates":[-62.666667,-33.7]},"properties":{"id":174,"numero":null,"nombre":"Leguizamon","fecha":"1900-01-01"}},{"type":"Feature","geometry":{"type":"Point","coordinates":[-59.729167,-34.218056]},"properties":{"id":175,"numero":"10/152-C","nombre":"Lima","fecha":"1900-01-01"}},{"type":"Feature","geometry":{"type":"Point","coordinates":[-61.421111,-34.543889]},"properties":{"id":176,"numero":"16/979-C","nombre":"Lincoln","fecha":"1900-01-01"}},{"type":"Feature","geometry":{"type":"Point","coordinates":[-58.661111,-38.143889]},"properties":{"id":177,"numero":"23/283-C","nombre":"Loberia","fecha":"1900-01-01"}},{"type":"Feature","geometry":{"type":"Point","coordinates":[-59.486667,-35.144722]},"properties":{"id":178,"numero":"2/583-C","nombre":"Lobos","fecha":"1900-01-01"}},{"type":"Feature","geometry":{"type":"Point","coordinates":[-60.693056,-34.365278]},"properties":{"id":179,"numero":"13/652-C","nombre":"Los Indios","fecha":"1900-01-01"}},{"type":"Feature","geometry":{"type":"Point","coordinates":[-61.244444,-33.663889]},"properties":{"id":180,"numero":"11/1414-C","nombre":"Los Leones","fecha":"1900-01-01"}},{"type":"Feature","geometry":{"type":"Point","coordinates":[-57.766667,-36.161667]},"properties":{"id":182,"numero":"21/3237-C","nombre":"Los Naranjos","fecha":"1900-01-01"}},{"type":"Feature","geometry":{"type":"Point","coordinates":[-58.187222,-37.891944]},"properties":{"id":183,"numero":"2/971-C","nombre":"Los Pinos","fecha":"1900-01-01"}},{"type":"Feature","geometry":{"type":"Point","coordinates":[-57.201389,-35.315]},"properties":{"id":184,"numero":"3/1273-C","nombre":"Luis Chico","fecha":"1900-01-01"}},{"type":"Feature","geometry":{"type":"Point","coordinates":[-57.599722,-35.113333]},"properties":{"id":185,"numero":"9/2310-C","nombre":"Magdalena","fecha":"1900-01-01"}},{"type":"Feature","geometry":{"type":"Point","coordinates":[-57.163056,-37.056667]},"properties":{"id":186,"numero":"8/2410-C","nombre":"Maipu","fecha":"1900-01-01"}},{"type":"Feature","geometry":{"type":"Point","coordinates":[-60.970833,-33.386111]},"properties":{"id":187,"numero":"10/942-C","nombre":"Maizales","fecha":"1900-01-01"}},{"type":"Feature","geometry":{"type":"Point","coordinates":[-56.961944,-36.621389]},"properties":{"id":188,"numero":"16/391-C","nombre":"Mal Abrigo","fecha":"1900-01-01"}},{"type":"Feature","geometry":{"type":"Point","coordinates":[-60.668056,-33.863889]},"properties":{"id":189,"numero":"08/2-C","nombre":"Manantiales","fecha":"1900-01-01"}},{"type":"Feature","geometry":{"type":"Point","coordinates":[-61.094444,-34.487778]},"properties":{"id":190,"numero":"12/1001-C","nombre":"Mar Chiquita","fecha":"1900-01-01"}},{"type":"Feature","geometry":{"type":"Point","coordinates":[-57.918611,-37.954444]},"properties":{"id":191,"numero":"5/1005-C","nombre":"Mar Del Plata","fecha":"1900-01-01"}},{"type":"Feature","geometry":{"type":"Point","coordinates":[-58.629167,-38.304444]},"properties":{"id":193,"numero":"23/275-C","nombre":"Mechongue","fecha":"1900-01-01"}},{"type":"Feature","geometry":{"type":"Point","coordinates":[-61.347222,-33.677778]},"properties":{"id":194,"numero":"11/1146-C","nombre":"Melincue","fecha":"1900-01-01"}},{"type":"Feature","geometry":{"type":"Point","coordinates":[-61.475,-34.25]},"properties":{"id":195,"numero":"8/733-C","nombre":"Membrillar","fecha":"1900-01-01"}},{"type":"Feature","geometry":{"type":"Point","coordinates":[-59.149722,-34.571111]},"properties":{"id":196,"numero":"2/200-C","nombre":"Mercedes","fecha":"1900-01-01"}},{"type":"Feature","geometry":{"type":"Point","coordinates":[-60.458056,-38.3625]},"properties":{"id":197,"numero":"25/1929-C","nombre":"Micaela Cascallares","fecha":"1900-01-01"}},{"type":"Feature","geometry":{"type":"Point","coordinates":[-60.472222,-36.677778]},"properties":{"id":198,"numero":"7/1412-C","nombre":"Minana","fecha":"1900-01-01"}},{"type":"Feature","geometry":{"type":"Point","coordinates":[-57.502778,-36.8375]},"properties":{"id":199,"numero":"13/2707-C","nombre":"Miranda","fecha":"1900-01-01"}},{"type":"Feature","geometry":{"type":"Point","coordinates":[-57.405278,-37.110278]},"properties":{"id":200,"numero":"2415-C","nombre":"Monsalvo","fecha":"1900-01-01"}},{"type":"Feature","geometry":{"type":"Point","coordinates":[-59.670833,-35.646667]},"properties":{"id":201,"numero":"29/1009-C","nombre":"Monte","fecha":"1900-01-01"}},{"type":"Feature","geometry":{"type":"Point","coordinates":[-60.788611,-33.026389]},"properties":{"id":202,"numero":"1/803-C","nombre":"Monte Flores","fecha":"1900-01-01"}},{"type":"Feature","geometry":{"type":"Point","coordinates":[-59.921111,-35.017222]},"properties":{"id":203,"numero":"3/307-C","nombre":"Moquehua","fecha":"1900-01-01"}},{"type":"Feature","geometry":{"type":"Point","coordinates":[-61.197222,-34.978056]},"properties":{"id":204,"numero":"25/251-C","nombre":"Morse","fecha":"1900-01-01"}},{"type":"Feature","geometry":{"type":"Point","coordinates":[-60.416667,-37.516667]},"properties":{"id":205,"numero":"7/2274-C","nombre":"Napaleofu","fecha":"1900-01-01"}},{"type":"Feature","geometry":{"type":"Point","coordinates":[-58.917778,-38.620833]},"properties":{"id":207,"numero":"25/568 C","nombre":"Necochea","fecha":"1900-01-01"}},{"type":"Feature","geometry":{"type":"Point","coordinates":[-60.764722,-37.477778]},"properties":{"id":208,"numero":"23/182-C","nombre":"Norumbega","fecha":"1900-01-01"}},{"type":"Feature","geometry":{"type":"Point","coordinates":[-60.828611,-35.303611]},"properties":{"id":209,"numero":"23/191-C","nombre":"Nueve De Julio","fecha":"1900-01-01"}},{"type":"Feature","geometry":{"type":"Point","coordinates":[-59.9475,-38.345278]},"properties":{"id":210,"numero":"23/576-C","nombre":"Ochandio","fecha":"1900-01-01"}},{"type":"Feature","geometry":{"type":"Point","coordinates":[-60.386111,-35.413333]},"properties":{"id":211,"numero":"23/193-C","nombre":"Olascoaga","fecha":"1900-01-01"}},{"type":"Feature","geometry":{"type":"Point","coordinates":[-60.426111,-36.945]},"properties":{"id":212,"numero":"7/1753-C","nombre":"Olavarria","fecha":"1900-01-01"}},{"type":"Feature","geometry":{"type":"Point","coordinates":[-59.661111,-38.768611]},"properties":{"id":213,"numero":"23/619-C","nombre":"Orense","fecha":"1900-01-01"}},{"type":"Feature","geometry":{"type":"Point","coordinates":[-60.386111,-35.413056]},"properties":{"id":214,"numero":"23/184-C","nombre":"Ortiz De Rosas","fecha":"1900-01-01"}},{"type":"Feature","geometry":{"type":"Point","coordinates":[-57.335556,-37.064722]},"properties":{"id":215,"numero":"8/1695-C","nombre":"Ostende","fecha":"1900-01-01"}},{"type":"Feature","geometry":{"type":"Point","coordinates":[-60.672778,-34.847222]},"properties":{"id":216,"numero":"25/219-C","nombre":"O brien","fecha":"1900-01-01"}},{"type":"Feature","geometry":{"type":"Point","coordinates":[-60.744444,-37.434722]},"properties":{"id":218,"numero":"23/186-C","nombre":"Patricios","fecha":"1900-01-01"}},{"type":"Feature","geometry":{"type":"Point","coordinates":[-57.531667,-35.314444]},"properties":{"id":219,"numero":"3/1116-C","nombre":"Payro","fecha":"1900-01-01"}},{"type":"Feature","geometry":{"type":"Point","coordinates":[-60.698611,-33.647222]},"properties":{"id":222,"numero":"10-684-C","nombre":"Peyrano","fecha":"1900-01-01"}},{"type":"Feature","geometry":{"type":"Point","coordinates":[-63.59,-36.59]},"properties":{"id":223,"numero":"86-C","nombre":"Phajouape","fecha":"1900-01-01"}},{"type":"Feature","geometry":{"type":"Point","coordinates":[-62.933333,-34.952778]},"properties":{"id":224,"numero":"53-C","nombre":"Piedritas","fecha":"1900-01-01"}},{"type":"Feature","geometry":{"type":"Point","coordinates":[-58.577222,-38.451389]},"properties":{"id":225,"numero":"25/561-C","nombre":"Pieres","fecha":"1900-01-01"}},{"type":"Feature","geometry":{"type":"Point","coordinates":[-62.546667,-37.623056]},"properties":{"id":226,"numero":"23/1340-C","nombre":"Pigue","fecha":"1900-01-01"}},{"type":"Feature","geometry":{"type":"Point","coordinates":[-57.868333,-36.034167]},"properties":{"id":227,"numero":"22/1042-C","nombre":"Pila","fecha":"1900-01-01"}},{"type":"Feature","geometry":{"type":"Point","coordinates":[-61.156389,-38.320833]},"properties":{"id":228,"numero":"25/37-C","nombre":"Pillahuinco","fecha":"1900-01-01"}},{"type":"Feature","geometry":{"type":"Point","coordinates":[-56.968056,-36.987778]},"properties":{"id":229,"numero":"3/2399-C","nombre":"Pinamar","fecha":"1900-01-01"}},{"type":"Feature","geometry":{"type":"Point","coordinates":[-57.403889,-35.558333]},"properties":{"id":230,"numero":"14/2176-C","nombre":"Pipinas","fecha":"1900-01-01"}},{"type":"Feature","geometry":{"type":"Point","coordinates":[-58.525833,-38.5175]},"properties":{"id":231,"numero":"25/548-C","nombre":"Pje.Arenas Verdes","fecha":"1900-01-01"}},{"type":"Feature","geometry":{"type":"Point","coordinates":[-58.988889,-38.652222]},"properties":{"id":232,"numero":"25/567-C","nombre":"Pje.Los Angeles","fecha":"1900-01-01"}},{"type":"Feature","geometry":{"type":"Point","coordinates":[-59.060278,-34.727222]},"properties":{"id":233,"numero":"4/171-C","nombre":"Plomer","fecha":"1900-01-01"}},{"type":"Feature","geometry":{"type":"Point","coordinates":[-57.69,-35.282778]},"properties":{"id":234,"numero":"3/1115-C","nombre":"Poblet","fecha":"1900-01-01"}},{"type":"Feature","geometry":{"type":"Point","coordinates":[-59.531944,-33.969444]},"properties":{"id":235,"numero":"R.P. 5/135 C","nombre":"Portela","fecha":"1900-01-01"}},{"type":"Feature","geometry":{"type":"Point","coordinates":[-62.976667,-37.561667]},"properties":{"id":236,"numero":"23-1324-C","nombre":"Puan","fecha":"1900-01-01"}},{"type":"Feature","geometry":{"type":"Point","coordinates":[-59.830833,-35.578889]},"properties":{"id":237,"numero":"5/2055-C","nombre":"Pueblitos","fecha":"1900-01-01"}},{"type":"Feature","geometry":{"type":"Point","coordinates":[-57.200556,-35.316111]},"properties":{"id":238,"numero":"3/1274-C","nombre":"Punta Indio","fecha":"1900-01-01"}},{"type":"Feature","geometry":{"type":"Point","coordinates":[-57.265278,-37.614722]},"properties":{"id":239,"numero":"8/1691-C","nombre":"Punta Medanos","fecha":"1900-01-01"}},{"type":"Feature","geometry":{"type":"Point","coordinates":[-60.416667,-37.1]},"properties":{"id":240,"numero":"2328-C","nombre":"Querandies","fecha":"1900-01-01"}},{"type":"Feature","geometry":{"type":"Point","coordinates":[-59.485556,-38.430278]},"properties":{"id":242,"numero":"25/1265-C","nombre":"Ramon Santamarina","fecha":"1900-01-01"}},{"type":"Feature","geometry":{"type":"Point","coordinates":[-60.586111,-33.972222]},"properties":{"id":243,"numero":"Rpvi-7-C","nombre":"Rancagua","fecha":"1900-01-01"}},{"type":"Feature","geometry":{"type":"Point","coordinates":[-61.466667,-38.033333]},"properties":{"id":244,"numero":"16/28-C","nombre":"Rancho Grande","fecha":"1900-01-01"}},{"type":"Feature","geometry":{"type":"Point","coordinates":[-59.115278,-36.765278]},"properties":{"id":245,"numero":"13/2701-C","nombre":"Rauch","fecha":"1900-01-01"}},{"type":"Feature","geometry":{"type":"Point","coordinates":[-60.206667,-34.601389]},"properties":{"id":246,"numero":"13/537-C","nombre":"Rawson","fecha":"1900-01-01"}},{"type":"Feature","geometry":{"type":"Point","coordinates":[-57.395556,-35.723056]},"properties":{"id":247,"numero":"10/3327-C","nombre":"Rincon De Lopez","fecha":"1900-01-01"}},{"type":"Feature","geometry":{"type":"Point","coordinates":[-58.968056,-38.26]},"properties":{"id":248,"numero":"23/294-C","nombre":"Rio Quequen","fecha":"1900-01-01"}},{"type":"Feature","geometry":{"type":"Point","coordinates":[-59.376389,-33.966667]},"properties":{"id":249,"numero":"R.P.5/134-C","nombre":"Rio Tala","fecha":"1900-01-01"}},{"type":"Feature","geometry":{"type":"Point","coordinates":[-60.995833,-34.135556]},"properties":{"id":250,"numero":"07/78-C","nombre":"Rojas","fecha":"1900-01-01"}},{"type":"Feature","geometry":{"type":"Point","coordinates":[-60.921667,-32.724167]},"properties":{"id":251,"numero":"Rp.4-699-C","nombre":"Roldan","fecha":"1900-01-01"}},{"type":"Feature","geometry":{"type":"Point","coordinates":[-63.1,-34.083333]},"properties":{"id":252,"numero":null,"nombre":"Rosales","fecha":"1900-01-01"}},{"type":"Feature","geometry":{"type":"Point","coordinates":[-62.433889,-37.706111]},"properties":{"id":253,"numero":"23/1348-C","nombre":"Saavedra","fecha":"1900-01-01"}},{"type":"Feature","geometry":{"type":"Point","coordinates":[-62.653333,-34.436111]},"properties":{"id":254,"numero":"C-13","nombre":"Saboya","fecha":"1900-01-01"}},{"type":"Feature","geometry":{"type":"Point","coordinates":[-61.085556,-34.413889]},"properties":{"id":255,"numero":"12/1003-C","nombre":"Saforcada","fecha":"1900-01-01"}},{"type":"Feature","geometry":{"type":"Point","coordinates":[-60.388889,-35.938889]},"properties":{"id":256,"numero":"3/1710-C","nombre":"Saladillo","fecha":"1900-01-01"}},{"type":"Feature","geometry":{"type":"Point","coordinates":[-62.083333,-36.306389]},"properties":{"id":257,"numero":"C-2","nombre":"Salazar","fecha":"1900-01-01"}},{"type":"Feature","geometry":{"type":"Point","coordinates":[-59.870278,-38.688889]},"properties":{"id":258,"numero":"23/599-C","nombre":"San Cayetano","fecha":"1900-01-01"}},{"type":"Feature","geometry":{"type":"Point","coordinates":[-60.6875,-38.245833]},"properties":{"id":259,"numero":"28/609-C","nombre":"San Gabriel","fecha":"1900-01-01"}},{"type":"Feature","geometry":{"type":"Point","coordinates":[-59.704444,-38.353333]},"properties":{"id":260,"numero":"23/579-C","nombre":"San Isidro","fecha":"1900-01-01"}},{"type":"Feature","geometry":{"type":"Point","coordinates":[-58.370833,-35.189167]},"properties":{"id":261,"numero":"9/1438-C","nombre":"San Luis Beltran","fecha":"1900-01-01"}},{"type":"Feature","geometry":{"type":"Point","coordinates":[-58.866944,-38.421944]},"properties":{"id":262,"numero":"25/418-C","nombre":"San Pedro","fecha":"1900-01-01"}},{"type":"Feature","geometry":{"type":"Point","coordinates":[-59.784722,-34.078333]},"properties":{"id":10,"numero":"RP9-280-C","nombre":"Arrecifes","fecha":"1965-11-16"}},{"type":"Feature","geometry":{"type":"Point","coordinates":[-60.416667,-34.102778]},"properties":{"id":14,"numero":"11/347-C","nombre":"Arroyo Dulce","fecha":"1965-11-18"}},{"type":"Feature","geometry":{"type":"Point","coordinates":[-61.455,-32.816667]},"properties":{"id":395,"numero":null,"nombre":"Las Trojas","fecha":"1966-01-01"}},{"type":"Feature","geometry":{"type":"Point","coordinates":[-61.663333,-32.95]},"properties":{"id":428,"numero":null,"nombre":"Villa Eloisa","fecha":"1966-01-01"}},{"type":"Feature","geometry":{"type":"Point","coordinates":[-61.5175,-32.615556]},"properties":{"id":423,"numero":null,"nombre":"Tres Lagunas","fecha":"1966-01-01"}},{"type":"Feature","geometry":{"type":"Point","coordinates":[-62.416667,-32.566667]},"properties":{"id":429,"numero":null,"nombre":"Villa Francisca","fecha":"1966-01-01"}},{"type":"Feature","geometry":{"type":"Point","coordinates":[-62.0,-32.75]},"properties":{"id":409,"numero":null,"nombre":"Río Tercero","fecha":"1966-01-01"}},{"type":"Feature","geometry":{"type":"Point","coordinates":[-62.2,-32.616667]},"properties":{"id":410,"numero":null,"nombre":"Namuncurá","fecha":"1966-01-01"}},{"type":"Feature","geometry":{"type":"Point","coordinates":[-61.866667,-32.616667]},"properties":{"id":382,"numero":null,"nombre":"Colonia Mendiguren","fecha":"1966-01-01"}},{"type":"Feature","geometry":{"type":"Point","coordinates":[-61.388889,-32.933333]},"properties":{"id":384,"numero":null,"nombre":"Correa","fecha":"1966-01-01"}},{"type":"Feature","geometry":{"type":"Point","coordinates":[-61.9,-32.566667]},"properties":{"id":387,"numero":null,"nombre":"La Florida","fecha":"1966-01-01"}},{"type":"Feature","geometry":{"type":"Point","coordinates":[-62.016667,-32.1]},"properties":{"id":383,"numero":null,"nombre":"Colonia Moreno","fecha":"1966-01-01"}},{"type":"Feature","geometry":{"type":"Point","coordinates":[-61.933333,-32.566667]},"properties":{"id":378,"numero":null,"nombre":"Arroyo Tortugas","fecha":"1966-01-01"}},{"type":"Feature","geometry":{"type":"Point","coordinates":[-61.4375,-33.195556]},"properties":{"id":374,"numero":null,"nombre":"Arequito","fecha":"1966-01-01"}},{"type":"Feature","geometry":{"type":"Point","coordinates":[-61.616667,-32.856944]},"properties":{"id":393,"numero":null,"nombre":"La Querencia","fecha":"1966-01-01"}},{"type":"Feature","geometry":{"type":"Point","coordinates":[-61.340278,-32.683333]},"properties":{"id":388,"numero":null,"nombre":"La Patria","fecha":"1966-01-01"}},{"type":"Feature","geometry":{"type":"Point","coordinates":[-61.578056,-33.046667]},"properties":{"id":400,"numero":"","nombre":"Los Nogales","fecha":"1966-01-01"}},{"type":"Feature","geometry":{"type":"Point","coordinates":[-62.083333,-32.583333]},"properties":{"id":402,"numero":"","nombre":"Marcos Juárez","fecha":"1966-01-01"}},{"type":"Feature","geometry":{"type":"Point","coordinates":[-62.366667,-32.7]},"properties":{"id":373,"numero":null,"nombre":"Achalay","fecha":"1966-01-01"}},{"type":"Feature","geometry":{"type":"Point","coordinates":[-61.121389,-32.745833]},"properties":{"id":381,"numero":null,"nombre":"Bustinza","fecha":"1966-01-01"}},{"type":"Feature","geometry":{"type":"Point","coordinates":[-62.45,-32.566667]},"properties":{"id":385,"numero":null,"nombre":"El Chajá","fecha":"1966-01-01"}},{"type":"Feature","geometry":{"type":"Point","coordinates":[-61.85,-33.116667]},"properties":{"id":386,"numero":null,"nombre":"Hansen","fecha":"1966-01-01"}},{"type":"Feature","geometry":{"type":"Point","coordinates":[-61.534722,-32.662222]},"properties":{"id":394,"numero":null,"nombre":"Larivieri","fecha":"1966-01-01"}},{"type":"Feature","geometry":{"type":"Point","coordinates":[-61.54,-32.4775]},"properties":{"id":399,"numero":null,"nombre":"Los Cardos","fecha":"1966-01-01"}},{"type":"Feature","geometry":{"type":"Point","coordinates":[-60.970833,-33.383611]},"properties":{"id":401,"numero":"","nombre":"Maizales","fecha":"1966-01-01"}},{"type":"Feature","geometry":{"type":"Point","coordinates":[-61.104722,-32.833333]},"properties":{"id":377,"numero":null,"nombre":"Armstrong","fecha":"1966-01-01"}},{"type":"Feature","geometry":{"type":"Point","coordinates":[-62.05,-32.55]},"properties":{"id":403,"numero":"","nombre":"María Manuela","fecha":"1966-01-01"}},{"type":"Feature","geometry":{"type":"Point","coordinates":[-62.45,-32.566667]},"properties":{"id":405,"numero":"","nombre":"Monte Grande","fecha":"1966-01-01"}},{"type":"Feature","geometry":{"type":"Point","coordinates":[-62.2,-32.616667]},"properties":{"id":406,"numero":"","nombre":"Namuncurá","fecha":"1966-01-01"}},{"type":"Feature","geometry":{"type":"Point","coordinates":[-61.279167,-32.694444]},"properties":{"id":416,"numero":"","nombre":"Santa Filipina","fecha":"1966-01-01"}},{"type":"Feature","geometry":{"type":"Point","coordinates":[-61.055556,-33.427778]},"properties":{"id":427,"numero":null,"nombre":"Villada","fecha":"1966-01-01"}},{"type":"Feature","geometry":{"type":"Point","coordinates":[-61.255556,-34.161111]},"properties":{"id":425,"numero":"8/386 C","nombre":"Delgado","fecha":"1966-07-20"}},{"type":"Feature","geometry":{"type":"Point","coordinates":[-61.255556,-34.161111]},"properties":{"id":58,"numero":"8/386-C","nombre":"Delgado","fecha":"1966-07-20"}},{"type":"Feature","geometry":{"type":"Point","coordinates":[-60.715833,-34.57]},"properties":{"id":217,"numero":"10/472-C","nombre":"O higgins","fecha":"1966-08-19"}},{"type":"Feature","geometry":{"type":"Point","coordinates":[-59.696389,-34.674167]},"properties":{"id":280,"numero":"12/778-C","nombre":"Suipacha","fecha":"1966-09-15"}},{"type":"Feature","geometry":{"type":"Point","coordinates":[-60.458333,-33.634722]},"properties":{"id":404,"numero":"7/450 C","nombre":"Arroyo Juárez","fecha":"1966-09-21"}},{"type":"Feature","geometry":{"type":"Point","coordinates":[-59.158333,-34.944167]},"properties":{"id":206,"numero":"1/317-C","nombre":"Navarro","fecha":"1966-10-24"}},{"type":"Feature","geometry":{"type":"Point","coordinates":[-60.861111,-34.357778]},"properties":{"id":171,"numero":"12/793-C","nombre":"Las Nutrias","fecha":"1966-11-18"}},{"type":"Feature","geometry":{"type":"Point","coordinates":[-60.743056,-34.461944]},"properties":{"id":3,"numero":"13/656-C","nombre":"Agustin Roca","fecha":"1967-03-17"}},{"type":"Feature","geometry":{"type":"Point","coordinates":[-61.055556,-33.427778]},"properties":{"id":311,"numero":"9-952-C","nombre":"Villada","fecha":"1967-08-22"}},{"type":"Feature","geometry":{"type":"Point","coordinates":[-58.447222,-35.422222]},"properties":{"id":181,"numero":"9/1433-C","nombre":"Los Mochos","fecha":"1969-10-22"}},{"type":"Feature","geometry":{"type":"Point","coordinates":[-58.4875,-35.136111]},"properties":{"id":4,"numero":"13/1255-C","nombre":"Alejandro Korn","fecha":"1969-10-24"}},{"type":"Feature","geometry":{"type":"Point","coordinates":[-58.161667,-35.457222]},"properties":{"id":2,"numero":"1/1785-C","nombre":"Abbot","fecha":"1971-05-26"}},{"type":"Feature","geometry":{"type":"Point","coordinates":[-59.120833,-36.447222]},"properties":{"id":192,"numero":"13/1895-C","nombre":"Martin Colman","fecha":"1972-03-21"}},{"type":"Feature","geometry":{"type":"Point","coordinates":[-57.468611,-36.635]},"properties":{"id":164,"numero":"16/384-C","nombre":"Las Armas","fecha":"1974-12-01"}},{"type":"Feature","geometry":{"type":"Point","coordinates":[-60.052778,-33.680556]},"properties":{"id":241,"numero":"6/358-C","nombre":"Ramallo","fecha":"1976-01-01"}},{"type":"Feature","geometry":{"type":"Point","coordinates":[-60.668056,-33.863889]},"properties":{"id":221,"numero":"7/334-C","nombre":"Pergamino","fecha":"1978-05-24"}},{"type":"Feature","geometry":{"type":"Point","coordinates":[-61.485556,-34.515833]},"properties":{"id":5,"numero":"16/971-C","nombre":"Alem","fecha":"1979-11-15"}},{"type":"Feature","geometry":{"type":"Point","coordinates":[-61.818889,-35.628333]},"properties":{"id":220,"numero":"23/1252-C","nombre":"Pehuajo","fecha":"1989-06-20"}},{"type":"Feature","geometry":{"type":"Point","coordinates":[65.628917,27.372611]},"properties":{"id":375,"numero":"","nombre":"Serie Alto Verde","fecha":"2004-11-22"}},{"type":"Feature","geometry":{"type":"Point","coordinates":[70.3,39.616667]},"properties":{"id":376,"numero":"","nombre":"Perfil 2: Argixerol cálcio - arídico","fecha":"2006-01-01"}}]}
